[
  
  {
  "image": "pictures/pakistan_location.jpg",
  "lat": 26.0466,
  "lon": 68.9481,
  "label": "District de Singhar, Province de Sindh, Pakistan",
  "detail-picture": "pictures/pakistan_detail.jpg",  
  "explainer": "Après les importantes inondation survenues au Pakistan en novembre 2022, les équipes MSF préparent et distribuent des biens de première nécessité  dans un village près de Sanghar, dans la province du Sindh, au Pakistan. Les équipes ont également distribué de l'eau potable et des kits d'hygiènes à des miliers de familles."
},
{
  "image": "pictures/afghanistan_location.jpg",
  "lat": 34.83972,
  "lon": 67.23083,
  "label": "Band-e-Amir, Bamyan Province, Afghanistan",
  "detail-picture": "pictures/afghanistan_detail.jpg",  
  "explainer": "En 2022, MSF a construit huit cliniques dans la province montagneuse de Bamiyan, en Afghanistan. Ces établissements offrent des soins de santé générale ainsi que des soins maternels et infantiles gratuits dans une région particulièrement reculée."
},
{
  "image": "pictures/yemen_location.jpg",
  "lat":15.217021,
  "lon":43.070476,
  "label": "Ad Dahi, Hodeidah, Yemen",
  "detail-picture": "pictures/yemen_detail.jpg",  
  "explainer": "Depuis août 2022, les équipes de MSF à Ad-Dahi prennent en charge les patient·e·s atteint·e·s de diarrhée aqueuse aiguë, dont la grande majorité sont des enfants de moins de cinq ans souffrant de malnutrition aiguë sévère."
},
{
  "image": "pictures/kyrgyzstan_location.jpg",
  "lat": 40.0626,
  "lon": 70.8194,
  "label": "Batken, Kyrgyzstan",
  "detail-picture": "pictures/kyrgyzstan_detail.jpg",  
  "explainer": "À la suite de deux conflits avec le Tadjikistan voisin en 2021 et 2022, les équipes MSF ont travaillé à Razzaqov, dans la région de Batken, d'août 2022 à décembre 2023, répondant aux besoins médicaux et de santé mentale des populations marquées par la guerre."
},
{
  "image": "pictures/rdc_location.jpg",
  "lat": 1.5958,
  "lon": 29.4179,
  "label": "Province de l'Ituri, République démocratique du Congo",
  "detail-picture": "pictures/rdc_detail.jpg",  
  "explainer": "MSF est l’une des principales organisations humanitaires en Ituri, dans l'est de la RDC. Les équipes MSF apportent une aide médicale d’urgence aux déplacé·e·s et blessé·e·s des conflits dans les hôpitaux de Drodro, Bunia et Angumu, dans des centres de santé répartis dans la province ainsi que dans des camps de déplacé·e·s."
}

]
